start,end,lat,lon,name,site_id,post_csv_filename,pv_id,wind_id,pv_wind_id_same
1/1/00,12/31/20,40.14771527,-105.8658793,GRANBY,9019500,./data/hydro//npd/synthetic_profiles/npd_9019500_2016_synthetic.csv,CO01656,CO01656,TRUE
1/1/00,12/31/20,36.46667,-91.53,MAMMOTH SPRINGS DAM 3,7069220,,AR01157,AR01157,TRUE
1/1/00,12/31/20,35.39471361,-106.5475309,JEMEZ CANYON DAM,8328950,./data/hydro//npd/synthetic_profiles/npd_8328950_2016_synthetic.csv,NM00003,NM00003,TRUE
1/1/00,12/31/20,41.4750376,-79.44546419,TIONESTA DAM,3020000,./data/hydro//npd/synthetic_profiles/npd_3020000_2019_synthetic.csv,PA00110,PA00110,TRUE
1/1/00,12/31/20,34.39866661,-87.98793911,Bear Creek,3592000,./data/hydro//npd/synthetic_profiles/npd_3592000_2018_synthetic.csv,AL05903,AL05903,TRUE
1/1/00,12/31/20,35.34394228,-103.4448062,UTE DAM,7227000,./data/hydro//npd/synthetic_profiles/npd_7227000_2015_synthetic.csv,NM00293,NM00293,TRUE
1/1/00,12/31/20,32.25014342,-96.64707736,BARDWELL LAKE,8063800,./data/hydro//npd/synthetic_profiles/npd_8063800_2012_synthetic.csv,TX00001,TX00001,TRUE
1/1/00,12/31/20,42.17066253,-104.6973797,GRAYROCKS,6670500,./data/hydro//npd/synthetic_profiles/npd_6670500_2019_synthetic.csv,WY01496,WY01496,TRUE
1/1/00,12/31/20,41.988617,-72.60346926,ENFIELD DAM,1184000,./data/hydro//npd/synthetic_profiles/npd_1184000_2010_synthetic.csv,CT00583,CT00583,TRUE
1/1/00,12/31/20,41.35790294,-73.66544033,CROTON FALLS DAM,1374701,./data/hydro//npd/synthetic_profiles/npd_1374701_2010_synthetic.csv,NY00039,NY00039,TRUE
1/1/00,12/31/20,36.75166341,-83.25657005,MARTINS FORK DAM,3400800,./data/hydro//npd/synthetic_profiles/npd_3400800_2015_synthetic.csv,KY03061,KY03061,TRUE
1/1/00,12/31/20,43.10639,-75.20834,UTICA HARBOR DAM,1342602,./data/hydro//npd/synthetic_profiles/npd_1342602_2018_synthetic.csv,NY00953,NY00953,TRUE
1/1/00,12/31/20,36.12065721,-114.9102765,LAKE LAS VEGAS,9419800,./data/hydro//npd/synthetic_profiles/npd_9419800_2014_synthetic.csv,NV10153,NV10153,TRUE
1/1/00,12/31/20,40.89590634,-74.3981726,Boonton Dam,1381000,./data/hydro//npd/synthetic_profiles/npd_1381000_2013_synthetic.csv,NJ00354,NJ00354,TRUE
1/1/00,12/31/20,37.60163041,-83.83265398,KENTUCKY RIVER LOCK & DAM 13,3282060,./data/hydro//npd/synthetic_profiles/npd_3282060_2013_synthetic.csv,KY01205,KY01205,TRUE
1/1/00,12/31/20,43.09355473,-71.65996233,EVERETT DAM,1091500,./data/hydro//npd/synthetic_profiles/npd_1091500_2018_synthetic.csv,NH00002,NH00002,TRUE
1/1/00,12/31/20,37.78452214,-84.10328751,KENTUCKY RIVER LOCK & DAM 11,3282290,./data/hydro//npd/synthetic_profiles/npd_3282290_2014_synthetic.csv,KY01203,KY01203,TRUE
1/1/00,12/31/20,32.65073255,-97.44840009,BENBROOK LAKE,8047000,./data/hydro//npd/synthetic_profiles/npd_8047000_2012_synthetic.csv,TX00003,TX00003,TRUE
1/1/00,12/31/20,43.75577387,-74.275498,INDIAN LAKE STONE DAM,1315000,./data/hydro//npd/synthetic_profiles/npd_1315000_2010_synthetic.csv,1787,NY00155,TRUE
1/1/00,12/31/20,42.46480853,-85.74945551,Otsego Dam,4108660,./data/hydro//npd/synthetic_profiles/npd_4108660_2014_synthetic.csv,MI00619,MI00619,TRUE
1/1/00,12/31/20,37.74576434,-84.58728285,KENTUCKY RIVER LOCK & DAM 8,3284500,./data/hydro//npd/synthetic_profiles/npd_3284500_2012_synthetic.csv,KY01201,KY01201,TRUE
1/1/00,12/31/20,37.84321867,-84.44046271,KENTUCKY RIVER LOCK & DAM 9,3284230,./data/hydro//npd/synthetic_profiles/npd_3284230_2014_synthetic.csv,KY01202,KY01202,TRUE
1/1/00,12/31/20,31.09381882,-93.38931823,LOWER ANACOCO DAM,8028000,./data/hydro//npd/synthetic_profiles/npd_8028000_2012_synthetic.csv,LA00001,LA00001,TRUE
1/1/00,12/31/20,41.40856114,-78.01935312,GEORGE B STEVENSON,1544000,./data/hydro//npd/synthetic_profiles/npd_1544000_2013_synthetic.csv,PA00914,PA00914,TRUE
1/1/00,12/31/20,40.3587684,-83.06903945,DELAWARE DAM,3225500,./data/hydro//npd/synthetic_profiles/npd_3225500_2015_synthetic.csv,OH00015,OH00015,TRUE
1/1/00,12/31/20,37.85831301,-87.41062104,GREEN RIVER LOCK & DAM 1,3321500,./data/hydro//npd/synthetic_profiles/npd_3321500_2015_synthetic.csv,KY03002,KY03002,TRUE
1/1/00,12/31/20,38.05201874,-84.83054111,KENTUCKY RIVER LOCK & DAM 5,3287250,./data/hydro//npd/synthetic_profiles/npd_3287250_2013_synthetic.csv,KY01198,KY01198,TRUE
1/1/00,12/31/20,43.059751,-76.83772739,DAM AT LOCK E 26,4235600,./data/hydro//npd/synthetic_profiles/npd_4235600_2014_synthetic.csv,NY00954,NY00954,TRUE
1/1/00,12/31/20,40.36465014,-106.8002453,LAKE CATAMOUNT,9239500,./data/hydro//npd/synthetic_profiles/npd_9239500_2015_synthetic.csv,CO02140,CO02140,TRUE
1/1/00,12/31/20,31.75747968,-88.12944571,COFFEEVILLE LOCK AND DAM,2469761,./data/hydro//npd/synthetic_profiles/npd_2469761_2014_synthetic.csv,AL01431,AL01431,TRUE
1/1/00,12/31/20,32.77891215,-87.84084137,A.I.SELDEN,2466030,./data/hydro//npd/synthetic_profiles/npd_2466030_2010_synthetic.csv,AL01429,AL01429,TRUE
1/1/00,12/31/20,39.39009,-120.0955,BOCA,10344500,./data/hydro//npd/synthetic_profiles/npd_10344500_2014_synthetic.csv,55,55,TRUE
1/1/00,12/31/20,29.50861709,-81.80572505,RODMAN DAM AND SPILLWAY,2243960,./data/hydro//npd/synthetic_profiles/npd_2243960_2010_synthetic.csv,FL00156,FL00156,TRUE
1/1/00,12/31/20,33.5157,-111.6916,GRANITE REEF DIVERSION,9512165,./data/hydro//npd/synthetic_profiles/npd_9512165_2011_synthetic.csv,AZ10316,AZ10316,TRUE
1/1/00,12/31/20,41.2911004,-84.28098805,INDEPENDENCE DAM,4192500,./data/hydro//npd/synthetic_profiles/npd_4192500_2014_synthetic.csv,OH00388,OH00388,TRUE
1/1/00,12/31/20,48.8521,-113.4159,SAINT MARYS DIVERSION DAM,5018000,./data/hydro//npd/synthetic_profiles/npd_5018000_2018_synthetic.csv,MT82932,MT82932,TRUE
1/1/00,12/31/20,42.08194533,-72.05919147,WESTVILLE DAM,1123600,./data/hydro//npd/synthetic_profiles/npd_1123600_2013_synthetic.csv,1843,1843,TRUE
1/1/00,12/31/20,43.22564573,-108.9547186,WIND RIVER DIVERSION DIKE,6227600,./data/hydro//npd/synthetic_profiles/npd_6227600_2010_synthetic.csv,WY01383,WY01383,TRUE
1/1/00,12/31/20,41.2254384,-73.8544174,NEW CROTON RESERVOIR DAM,1375000,./data/hydro//npd/synthetic_profiles/npd_1375000_2014_synthetic.csv,NY00046,NY00046,TRUE
1/1/00,12/31/20,41.0825814,-85.11589578,HOSEY (MAUMEE RIVER) DAM (IN-CHANNEL),4182900,./data/hydro//npd/synthetic_profiles/npd_4182900_2015_synthetic.csv,IN00810,IN00810,TRUE
1/1/00,12/31/20,32.52065708,-87.87883184,DEMOPOLIS LOCK AND DAM,2467000,./data/hydro//npd/synthetic_profiles/npd_2467000_2019_synthetic.csv,AL01430,AL01430,TRUE
1/1/00,12/31/20,37.89473687,-84.26135825,KY RIVER LOCK & DAM NO 10,3284000,,KY01170,KY01170,TRUE
1/1/00,12/31/20,37.92672034,-84.82159285,KENTUCKY RIVER LOCK & DAM 6,3287000,./data/hydro//npd/synthetic_profiles/npd_3287000_2013_synthetic.csv,KY01199,KY01199,TRUE
1/1/00,12/31/20,37.67724554,-83.94808865,KENTUCKY RIVER LOCK & DAM 12,3282120,./data/hydro//npd/synthetic_profiles/npd_3282120_2014_synthetic.csv,KY01204,KY01204,TRUE
1/1/00,12/31/20,42.87811653,-74.04201653,LOCK E-9 DAM AT ROTTERDAM JCT,1354500,./data/hydro//npd/synthetic_profiles/npd_1354500_2014_synthetic.csv,NY00962,NY00962,TRUE
1/1/00,12/31/20,41.04614954,-81.00249105,BERLIN DAM,3090500,./data/hydro//npd/synthetic_profiles/npd_3090500_2014_synthetic.csv,OH00032,OH00032,TRUE
1/1/00,12/31/20,39.73262061,-81.90871632,MUSKINGUM RIVER LOCK AND DAM NO. 8,3150000,./data/hydro//npd/synthetic_profiles/npd_3150000_2013_synthetic.csv,OH00698,OH00698,TRUE
1/1/00,12/31/20,31.55104682,-97.09760883,LAKE BRAZOS DAM,8096500,./data/hydro//npd/synthetic_profiles/npd_8096500_2010_synthetic.csv,TX04101,TX04101,TRUE
1/1/00,12/31/20,41.65791354,-91.5409205,BURLINGTON STREET DAM,5454500,./data/hydro//npd/synthetic_profiles/npd_5454500_2013_synthetic.csv,IA03064,IA03064,TRUE
1/1/00,12/31/20,42.49733447,-92.3384531,WATERLOO MILLDAM,5464000,./data/hydro//npd/synthetic_profiles/npd_5464000_2013_synthetic.csv,IA01320,IA01320,TRUE
1/1/00,12/31/20,41.9839364,-77.15159512,COWANESQUE DAM,1520000,./data/hydro//npd/synthetic_profiles/npd_1520000_2010_synthetic.csv,PA01134,PA01134,TRUE
1/1/00,12/31/20,39.00326341,-80.47429765,"STONEWALL JACKSON DAM,WV",3058000,./data/hydro//npd/synthetic_profiles/npd_3058000_2012_synthetic.csv,WV00049,WV00049,TRUE
1/1/00,12/31/20,43.78679293,-122.9547658,DORENA,14155500,./data/hydro//npd/synthetic_profiles/npd_14155500_2011_synthetic.csv,300,300,TRUE
1/1/00,12/31/20,43.18833,-73.58334,THOMPSON ISLAND DAM,1328770,./data/hydro//npd/synthetic_profiles/npd_1328770_2018_synthetic.csv,1230,1230,TRUE
1/1/00,12/31/20,32.97269942,-97.05703303,GRAPEVINE LAKE,8055000,./data/hydro//npd/synthetic_profiles/npd_8055000_2012_synthetic.csv,TX00005,TX00005,TRUE
1/1/00,12/31/20,34.95197915,-93.16036063,NIMROD,7263012,./data/hydro//npd/synthetic_profiles/npd_7263012_2011_synthetic.csv,AR00158,AR00158,TRUE
1/1/00,12/31/20,29.08005449,-81.88188185,MOSS BLUFF LOCK AND SPILLWAY,2238500,./data/hydro//npd/synthetic_profiles/npd_2238500_2016_synthetic.csv,FL00145,FL00145,TRUE
1/1/00,12/31/20,40.50333787,-80.08930625,EMSWORTH LOCKS AND DAMS,3086000,./data/hydro//npd/synthetic_profiles/npd_3086000_2013_synthetic.csv,PA00126,PA00126,TRUE
1/1/00,12/31/20,32.54783,-104.3781,BRANTLEY,8401500,./data/hydro//npd/synthetic_profiles/npd_8401500_2018_synthetic.csv,NM00500,NM00500,TRUE
1/1/00,12/31/20,32.49074942,-104.2521162,AVALON,8403500,./data/hydro//npd/synthetic_profiles/npd_8403500_2010_synthetic.csv,NM00132,NM00132,TRUE
1/1/00,12/31/20,34.83539581,-78.82302352,WILLIAM O. HUSKE LOCK & DAM,2105500,./data/hydro//npd/synthetic_profiles/npd_2105500_2013_synthetic.csv,NC00206,NC00206,TRUE
1/1/00,12/31/20,40.067,-123.8,Benbow,11476500,./data/hydro//npd/synthetic_profiles/npd_11476500_2011_synthetic.csv,CA00030,CA00030,TRUE
1/1/00,12/31/20,41.1995482,-85.02077745,CEDARVILLE DAM,4180500,./data/hydro//npd/synthetic_profiles/npd_4180500_2010_synthetic.csv,IN00012,IN00012,TRUE
1/1/00,12/31/20,44.12005533,-123.3021609,FERN RIDGE,14170000,./data/hydro//npd/synthetic_profiles/npd_14170000_2011_synthetic.csv,OR00016,OR00016,TRUE
1/1/00,12/31/20,44.1711628,-122.3276174,BLUE RIVER,14162200,./data/hydro//npd/synthetic_profiles/npd_14162200_2011_synthetic.csv,OR00013,OR00013,TRUE
1/1/00,12/31/20,45.13004,-112.7406,BARRETTS DIVERSION,6017000,./data/hydro//npd/synthetic_profiles/npd_6017000_2019_synthetic.csv,MT82919,MT82919,TRUE
1/1/00,12/31/20,28.02462416,-82.42840625,CITY OF TAMPA WATERWORKS DAM,2304500,./data/hydro//npd/synthetic_profiles/npd_2304500_2012_synthetic.csv,FL00169,FL00169,TRUE
1/1/00,12/31/20,33.73190075,-114.5118585,PALO VERDE DIVERSION,9429000,./data/hydro//npd/synthetic_profiles/npd_9429000_2016_synthetic.csv,AZ10314,AZ10314,TRUE
1/1/00,12/31/20,39.47786641,-98.31482202,GLEN ELDER,6875900,./data/hydro//npd/synthetic_profiles/npd_6875900_2016_synthetic.csv,KS00021,KS00021,TRUE
1/1/00,12/31/20,40.6135564,-79.71762305,ALLEGHENY LOCK AND DAM 04,3049500,./data/hydro//npd/synthetic_profiles/npd_3049500_2013_synthetic.csv,PA00114,PA00114,TRUE
1/1/00,12/31/20,40.95209,-78.52301839,CURWENSVILLE DAM,1541200,./data/hydro//npd/synthetic_profiles/npd_1541200_2017_synthetic.csv,PA00003,PA00003,TRUE
1/1/00,12/31/20,42.6325426,-72.1229774,BIRCH HILL DAM,1166500,./data/hydro//npd/synthetic_profiles/npd_1166500_2019_synthetic.csv,MA00963,MA00963,TRUE
1/1/00,12/31/20,39.99572574,-79.59445079,UNNAMED,3082500,./data/hydro//npd/synthetic_profiles/npd_3082500_2015_synthetic.csv,PA01547,PA01547,TRUE
1/1/00,12/31/20,43.27057007,-76.20613219,CAUGHDENOY DAM,4247000,./data/hydro//npd/synthetic_profiles/npd_4247000_2014_synthetic.csv,NY00410,NY00410,TRUE
1/1/00,12/31/20,33.20871222,-87.59254284,WILLIAM BACON OLIVER REPLACEMENT,2465000,./data/hydro//npd/synthetic_profiles/npd_2465000_2012_synthetic.csv,AL01981,AL01981,TRUE
1/1/00,12/31/20,38.11760167,-83.53235945,CAVE RUN LAKE DAM,3249500,./data/hydro//npd/synthetic_profiles/npd_3249500_2010_synthetic.csv,KY03055,KY03055,TRUE
1/1/00,12/31/20,41.79868627,-72.93143393,PHELPS DAM - NEPAUG RESERVOIR,1188090,./data/hydro//npd/synthetic_profiles/npd_1188090_2014_synthetic.csv,CT00378,CT00378,TRUE
1/1/00,12/31/20,34.40473468,-78.29330392,LOCK AND DAM #1,2105769,./data/hydro//npd/synthetic_profiles/npd_2105769_2013_synthetic.csv,NC00182,NC00182,TRUE
1/1/00,12/31/20,40.1130698,-106.4142179,RITSCHARD,9041400,./data/hydro//npd/synthetic_profiles/npd_9041400_2019_synthetic.csv,CO02788,CO02788,TRUE
1/1/00,12/31/20,34.23286575,-113.6013129,ALAMO DAM,9426000,./data/hydro//npd/synthetic_profiles/npd_9426000_2012_synthetic.csv,AZ82203,AZ82203,TRUE
1/1/00,12/31/20,42.53940853,-92.44878063,CEDAR FALLS MILLDAM,5463050,./data/hydro//npd/synthetic_profiles/npd_5463050_2017_synthetic.csv,IA01213,IA01213,TRUE
1/1/00,12/31/20,43.43881947,-75.59030046,ROME CITY DAM AND DIKE,4242500,./data/hydro//npd/synthetic_profiles/npd_4242500_2011_synthetic.csv,NY00558,NY00558,TRUE
1/1/00,12/31/20,37.23289354,-82.34422805,JOHN W FLANNAGAN DAM,3209000,./data/hydro//npd/synthetic_profiles/npd_3209000_2015_synthetic.csv,294,294,TRUE
1/1/00,12/31/20,37.53140468,-87.26479544,GREEN RIVER LOCK & DAM 2,3320000,./data/hydro//npd/synthetic_profiles/npd_3320000_2016_synthetic.csv,KY03003,KY03003,TRUE
1/1/00,12/31/20,43.01417,-74.78416,LOCK E-16 DAM AT ROCKY RIFT,1347000,./data/hydro//npd/synthetic_profiles/npd_1347000_2018_synthetic.csv,1201,1201,TRUE
1/1/00,12/31/20,40.71402307,-79.50829225,CROOKED CREEK DAM,3039000,./data/hydro//npd/synthetic_profiles/npd_3039000_2014_synthetic.csv,PA00102,PA00102,TRUE
1/1/00,12/31/20,32.46965828,-84.99665091,EAGLE AND PHOENIX MILL LAKE DAM,2341460,./data/hydro//npd/synthetic_profiles/npd_2341460_2014_synthetic.csv,647,647,TRUE
1/1/00,12/31/20,28.97711269,-96.01223083,LCRA DAM BAY CITY,8162500,./data/hydro//npd/synthetic_profiles/npd_8162500_2017_synthetic.csv,TX01542,TX01542,TRUE
1/1/00,12/31/20,41.94449167,-91.63053503,CEDAR RAPIDS MILLDAM IEL&P,5464730,./data/hydro//npd/synthetic_profiles/npd_5464730_2019_synthetic.csv,IA01270,IA01270,TRUE
1/1/00,12/31/20,40.55683434,-107.3863286,ELKHEAD CREEK,9246500,./data/hydro//npd/synthetic_profiles/npd_9246500_2014_synthetic.csv,CO00976,CO00976,TRUE
1/1/00,12/31/20,43.3389236,-72.50748553,NORTH SPRINGFIELD DAM,1153000,./data/hydro//npd/synthetic_profiles/npd_1153000_2018_synthetic.csv,898,898,TRUE
1/1/00,12/31/20,32.76149062,-97.33146676,NUTT DAM,8048000,./data/hydro//npd/synthetic_profiles/npd_8048000_2012_synthetic.csv,TX05020,TX05020,TRUE
1/1/00,12/31/20,35.48602348,-97.66658649,OVERHOLSER,7241000,./data/hydro//npd/synthetic_profiles/npd_7241000_2013_synthetic.csv,OK02537,OK02537,TRUE
1/1/00,12/31/20,42.32911247,-75.22999393,EAST SIDNEY DAM,1500000,./data/hydro//npd/synthetic_profiles/npd_1500000_2017_synthetic.csv,NY01211,NY01211,TRUE
1/1/00,12/31/20,40.59449207,-79.09882492,TWO LICK CREEK,3042500,./data/hydro//npd/synthetic_profiles/npd_3042500_2015_synthetic.csv,PA00285,PA00285,TRUE
1/1/00,12/31/20,43.32481,-83.74167,Frankenmuth Dam,4151500,./data/hydro//npd/synthetic_profiles/npd_4151500_2014_synthetic.csv,MI00361,MI00361,TRUE
1/1/00,12/31/20,39.49045427,-79.63913772,Albright Bridge Dam,3070260,./data/hydro//npd/synthetic_profiles/npd_3070260_2015_synthetic.csv,WV07723,WV07723,TRUE
1/1/00,12/31/20,41.66303527,-86.17717538,BALL BAND DAM (IN-CHANNEL),4101225,,975,975,TRUE
1/1/00,12/31/20,40.63531094,-81.55800092,BEACH CITY DAM,3124500,./data/hydro//npd/synthetic_profiles/npd_3124500_2015_synthetic.csv,OH00005,OH00005,TRUE
1/1/00,12/31/20,39.92253434,-76.75402339,YORK INDIAN ROCK DAM,1575500,./data/hydro//npd/synthetic_profiles/npd_1575500_2012_synthetic.csv,PA00007,PA00007,TRUE
1/1/00,12/31/20,31.02266342,-97.53181203,STILLHOUSE-HOLLOW DAM,8104100,./data/hydro//npd/synthetic_profiles/npd_8104100_2017_synthetic.csv,TX00014,TX00014,TRUE
1/1/00,12/31/20,41.89822694,-77.13890786,TIOGA DAM,1518000,./data/hydro//npd/synthetic_profiles/npd_1518000_2010_synthetic.csv,PA01134,PA01134,TRUE
1/1/00,12/31/20,37.59963274,-81.82077638,R D BAILEY DAM,3203600,./data/hydro//npd/synthetic_profiles/npd_3203600_2013_synthetic.csv,WV10924,WV10924,TRUE
1/1/00,12/31/20,40.21553154,-80.96267172,GEORGETOWN UPPER POND NO. 2 DAM,3111500,./data/hydro//npd/synthetic_profiles/npd_3111500_2013_synthetic.csv,OH01102,OH01102,TRUE
1/1/00,12/31/20,39.11408747,-95.4261717,PERRY DAM,6890900,./data/hydro//npd/synthetic_profiles/npd_6890900_2017_synthetic.csv,KS00009,KS00009,TRUE
1/1/00,12/31/20,39.31293794,-80.03392405,TYGART DAM,3056000,./data/hydro//npd/synthetic_profiles/npd_3056000_2016_synthetic.csv,WV09101,WV09101,TRUE
1/1/00,12/31/20,42.66939773,-89.03152557,MONTEREY,5430500,./data/hydro//npd/synthetic_profiles/npd_5430500_2016_synthetic.csv,WI00296,WI00296,TRUE
1/1/00,12/31/20,41.97145353,-71.47084333,MANVILLE,1113895,./data/hydro//npd/synthetic_profiles/npd_1113895_2017_synthetic.csv,RI00809,RI00809,TRUE
1/1/00,12/31/20,44.16216,-91.81022,LOCK & DAM NO 5,5378500,./data/hydro//npd/synthetic_profiles/npd_5378500_2018_synthetic.csv,WI00589,WI00589,TRUE